City,Sentiment,Count,Latitude,Longitude,Country
.ch,POSITIVE,34,46.7985624,8.231973599999998,Suisse
aadorf,POSITIVE,164,47.4915782,8.902952599999999,Suisse
aarau,POSITIVE,4974,47.3927146,8.0444448,Suisse
aarau.,NEGATIVE,43,47.3927146,8.0444448,Suisse
aarberg,NEGATIVE,53,47.0443346,7.2753004,Suisse
aarburg,POSITIVE,75,47.3206417,7.8993599,Suisse
aargau,POSITIVE,5971,47.412396,8.1948321,Suisse
adelboden,POSITIVE,67,46.4927213,7.5587618,Suisse
adetswil,NEGATIVE,3,47.3396328,8.8435332,Suisse
adligenswil,NEGATIVE,35,47.070535,8.368244,Suisse
adliswil,POSITIVE,80,47.3117624,8.52491,Suisse
aegerten,POSITIVE,51,47.1202408,7.2884966,Suisse
aeschi,POSITIVE,9,47.18042020000001,7.661874000000001,Suisse
aeugst,POSITIVE,2,47.533807700000004,7.7206018,Suisse
affoltern,POSITIVE,99,47.4188265,8.5068666,Suisse
aigle,NEGATIVE,15,46.3179006,6.9688929,Suisse
albinen,POSITIVE,1,46.34064420000001,7.633727700000001,Suisse
albisrieden,NEGATIVE,1,47.3748299,8.484557800000001,Suisse
alikon,NEGATIVE,7,47.198939700000004,8.359232901420249,Suisse
allschwil,POSITIVE,285,47.5517277,7.5361588,Suisse
alpinaweg,POSITIVE,1,46.939058700000004,8.9989132,Suisse
alpnach,NEGATIVE,10,46.941166100000004,8.273682899999999,Suisse
alpthal,POSITIVE,8,47.0734939,8.7138911,Suisse
altnau,POSITIVE,5,47.61241,9.260705,Suisse
altstaetten,POSITIVE,4,47.3783471,9.5412765,Suisse
altstätten,POSITIVE,29,47.3783471,9.5412765,Suisse
amden,POSITIVE,52,47.1496317,9.1411228,Suisse
amriswil,POSITIVE,53,47.5500227,9.2981219,Suisse
amsoldingen,POSITIVE,6,46.7280971,7.580775900000001,Suisse
andeer,POSITIVE,4,46.6022665,9.4269682,Suisse
andermatt,POSITIVE,20,46.6340499,8.5948148,Suisse
anniviers,NEGATIVE,6,46.15338045,7.591856801599981,Suisse
appenzell,POSITIVE,324,47.3303856,9.4095307,Suisse
appenzellerland,POSITIVE,7,47.372236,9.277904800000002,Suisse
apples,NEGATIVE,1,46.551672700000005,6.426765799999999,Suisse
arau,NEGATIVE,12,47.3927146,8.0444448,Suisse
arbon,NEGATIVE,972,47.514925700000006,9.430402599999999,Suisse
ardez,NEGATIVE,1,46.7745373,10.201209500000001,Suisse
arisdorf,POSITIVE,63,47.512381299999994,7.765508199999999,Suisse
arlesheim,POSITIVE,73,47.4931125,7.6202048,Suisse
arolla,POSITIVE,54,46.025975,7.481086599999999,Suisse
arosa,POSITIVE,284,46.7797248,9.6781356,Suisse
arth,POSITIVE,17,47.0644551,8.523867300000001,Suisse
ascona,POSITIVE,10,46.155422200000004,8.7707865,Suisse
aubonne,POSITIVE,1,46.4952916,6.3915748,Suisse
baden,POSITIVE,9172,47.473682700000005,8.3086822,Suisse
basel,POSITIVE,86252,47.55810770000001,7.5878261,Suisse
basel.ch,POSITIVE,39,47.55810770000001,7.5878261,Suisse
baselland,POSITIVE,165,47.4844045,7.7324269592521,Suisse
basilea,POSITIVE,90,47.55810770000001,7.5878261,Suisse
bassersdorf,POSITIVE,115,47.4435706,8.6299131,Suisse
beckenhofstrasse,POSITIVE,7,47.3871491,8.539936,Suisse
beinwil,POSITIVE,47,47.2302283,8.3422897,Suisse
bellach,POSITIVE,52,47.2134073,7.498331299999999,Suisse
bellwald,POSITIVE,1,46.42566935,8.159651971338121,Suisse
belp,POSITIVE,83,46.88978,7.498388,Suisse
bennwil,NEGATIVE,2,47.4041393,7.7801695,Suisse
berikon,POSITIVE,59,47.3528355,8.3701013,Suisse
bern,POSITIVE,86408,46.9482713,7.4514512,Suisse
berna,POSITIVE,156,46.9482713,7.4514512,Suisse
bernastrasse,POSITIVE,17,46.942784100000004,7.4483357,Suisse
berne,POSITIVE,5055,46.9482713,7.4514512,Suisse
berneck,NEGATIVE,2,47.424901899999995,9.6102137,Suisse
beromünster,POSITIVE,6,47.207637299999995,8.1924386,Suisse
besenbüren,NEGATIVE,1,47.3123219,8.3439287,Suisse
bevaix,POSITIVE,2,46.9297213,6.8105994999999995,Suisse
biasca,POSITIVE,1,46.3606274,8.9714023,Suisse
biberist,POSITIVE,7,47.1810605,7.5626086,Suisse
biberstein,POSITIVE,19,47.4140107,8.081917,Suisse
bielstrasse,POSITIVE,2,47.0431687,7.2715659,Suisse
binningen,POSITIVE,7,47.536559999999994,7.570077,Suisse
birmensdorf,POSITIVE,51,47.3538481,8.438215699999999,Suisse
bière,POSITIVE,6,46.537377299999996,6.3337235,Suisse
blonay,NEGATIVE,1,46.465039700000005,6.8951981,Suisse
bonaduz,NEGATIVE,9,46.81132,9.3984396,Suisse
boppelsen,POSITIVE,13,47.4708527,8.4026156,Suisse
bremgarten,POSITIVE,258,47.35395689999999,8.337644599999999,Suisse
brigels,POSITIVE,4,46.767563200000005,9.0622845,Suisse
brittnau,NEGATIVE,14,47.2586821,7.9466147,Suisse
brn,POSITIVE,7,46.9482713,7.4514512,Suisse
broye,NEGATIVE,5,46.7763435,6.9086151,Suisse
brugg,POSITIVE,466,47.4824633,8.2085662,Suisse
bullet,POSITIVE,1,46.830931400000004,6.5546431,Suisse
bundesgasse,NEGATIVE,3,46.946592700000004,7.442059599999999,Suisse
burgdorf,POSITIVE,285,47.058769500000004,7.623074400000001,Suisse
buus,NEGATIVE,6,47.505526399999994,7.8650401,Suisse
bâsel,POSITIVE,1,47.55810770000001,7.5878261,Suisse
bäretswil,POSITIVE,1,47.3360247,8.8580536,Suisse
bärn,POSITIVE,49,46.9482713,7.4514512,Suisse
bösingen,POSITIVE,4,46.8924179,7.227354400000001,Suisse
bürglen,POSITIVE,7,47.2575984,8.5373809,Suisse
bütschwil,POSITIVE,9,47.3545519,9.07532116771581,Suisse
cadenazzo,NEGATIVE,5,46.150969700000005,8.945870300000001,Suisse
canvee,NEGATIVE,1,46.2796662,9.004169000000001,Suisse
carouge,NEGATIVE,4,46.1846691,6.1396839000000005,Suisse
cazis,NEGATIVE,8,46.7377176,9.40353862282802,Suisse
celerina,POSITIVE,32,46.5132296,9.858624800000001,Suisse
cernier,NEGATIVE,2,47.05945379999999,6.9053838,Suisse
champéry,POSITIVE,13,46.1756791,6.8687664999999996,Suisse
cheseaux,POSITIVE,1,46.585432399999995,6.6061393,Suisse
cholerweg,NEGATIVE,1,47.460772799999994,8.2080327,Suisse
coppet,POSITIVE,1,46.316338,6.1929509000000005,Suisse
cortaillod,POSITIVE,1,46.943231899999994,6.845894400000001,Suisse
courroux,POSITIVE,1,47.359922,7.3782917,Suisse
crans,NEGATIVE,4,46.30688189999999,7.4687012,Suisse
crissier,NEGATIVE,1,46.5538658,6.577250099999999,Suisse
derendingen,NEGATIVE,2,47.1995305,7.5859837,Suisse
diegten,POSITIVE,20,47.409937,7.809077,Suisse
dietikon,POSITIVE,823,47.406882700000004,8.4020894,Suisse
dietlikon,POSITIVE,29,47.422280799999996,8.615597900000001,Suisse
dintikon,POSITIVE,2,47.363643200000006,8.227791400000001,Suisse
diolly,POSITIVE,1,46.2388525,7.344252,Suisse
disentis,POSITIVE,37,46.7041748,8.8549785,Suisse
domat,POSITIVE,51,46.8351271,9.4506859,Suisse
dornach,NEGATIVE,555,47.4806097,7.6176609,Suisse
dottikon,NEGATIVE,7,47.3838825,8.241593,Suisse
dulliken,POSITIVE,45,47.3537179,7.942468099999999,Suisse
dänikon,NEGATIVE,3,47.445933000000004,8.4057151,Suisse
dättwil,POSITIVE,13,47.453733299999996,8.2849682,Suisse
düdingen,NEGATIVE,43,46.849747,7.1904436,Suisse
dürnten,POSITIVE,99,47.2778545,8.842203,Suisse
dürrenäsch,POSITIVE,11,47.3215135,8.1571142,Suisse
eawag,POSITIVE,1,47.4048009,8.60968996763299,Suisse
ebikon,NEGATIVE,80,47.0812067,8.338521,Suisse
echallens,POSITIVE,1,46.63811629999999,6.6346951,Suisse
effretikon,POSITIVE,50,47.428313700000004,8.686971400000001,Suisse
eigerplatz,POSITIVE,1,46.940483799999996,7.431453,Suisse
eiken,NEGATIVE,3,47.531250799999995,7.9894417,Suisse
eisarena,POSITIVE,1,46.4896297,9.83765535000001,Suisse
elfingen,NEGATIVE,10,47.507281,8.0984811,Suisse
elgg,POSITIVE,47,47.4945745,8.8662125,Suisse
ennetbühl,POSITIVE,3,47.2410166,9.2112669,Suisse
epfl,NEGATIVE,2,46.5186594,6.566561505148,Suisse
erlinsbach,POSITIVE,82,47.396866100000004,8.0133738,Suisse
etziken,NEGATIVE,60,47.1871991,7.6478981,Suisse
faoug,POSITIVE,1,46.905792299999995,7.0740011,Suisse
ferenbalm,NEGATIVE,15,46.948832700000004,7.2109008,Suisse
fislisbach,POSITIVE,34,47.4369564,8.289413799999998,Suisse
flaach,NEGATIVE,9,47.5754461,8.606075500000001,Suisse
flamatt,POSITIVE,70,46.8894589,7.3110208,Suisse
flawil,POSITIVE,80,47.414613,9.186148900000001,Suisse
flums,NEGATIVE,4,47.0939665,9.343589,Suisse
flurlingen,POSITIVE,3,47.6860764,8.6272354,Suisse
flüelen,NEGATIVE,312,46.9027239,8.6253481,Suisse
flühli,NEGATIVE,1,46.8840067,8.01564,Suisse
frauenfeld,POSITIVE,2279,47.5562359,8.8964139,Suisse
frauenkappelen,POSITIVE,2,46.9534091,7.3356617,Suisse
freienbach,POSITIVE,83,47.204411,8.7598816,Suisse
frenkendorf,POSITIVE,5,47.502854299999996,7.713828299999999,Suisse
fribourg,POSITIVE,4834,46.803319200000004,7.16175552542195,Suisse
friburg,NEGATIVE,87,46.803319200000004,7.16175552542195,Suisse
frick,POSITIVE,139,47.5075081,8.0203065,Suisse
friedlisberg,POSITIVE,6,47.362606400000004,8.388943,Suisse
frutigen,POSITIVE,176,46.5874205,7.6444369000000005,Suisse
galgenen,POSITIVE,1,47.1815904,8.874241099999999,Suisse
gams,POSITIVE,40,47.2054106,9.442126400000001,Suisse
gasel,POSITIVE,6,46.899674700000006,7.4034016000000005,Suisse
gaswerkstrasse,POSITIVE,43,47.4608042,9.031723300000001,Suisse
gattikon,POSITIVE,4,47.28430529999999,8.548761099999998,Suisse
genf,NEGATIVE,147,46.2017559,6.146601400000001,Suisse
gerlafingen,POSITIVE,58,47.169342,7.572082000000001,Suisse
giacomettistrasse,POSITIVE,14,47.4029658,8.5047843,Suisse
giubiasco,POSITIVE,6,46.173915799999996,9.013407699999998,Suisse
glarus,POSITIVE,569,47.0422116,9.0674041,Suisse
glattfelden,NEGATIVE,5,47.5596747,8.501942300000001,Suisse
gonten,NEGATIVE,2,47.326177,9.3428845,Suisse
gotthard,POSITIVE,17,47.6383116,8.6009708,Suisse
graubünden,POSITIVE,839,46.6960615,9.6027351,Suisse
grenchen,POSITIVE,479,47.1968713,7.3965792,Suisse
grossaffoltern,POSITIVE,12,47.0667831,7.360891900000001,Suisse
grüsch,POSITIVE,3,46.9790731,9.6468917,Suisse
grüt,NEGATIVE,9,46.6855057,7.829243099999999,Suisse
gstaad,POSITIVE,32,46.4740433,7.2857944,Suisse
guemmenen,NEGATIVE,2,46.9448449,7.2439516,Suisse
gva,POSITIVE,7,46.2369,6.1089,Suisse
gwatt,POSITIVE,1,46.723289,7.6230687999999995,Suisse
gächlingen,POSITIVE,2,47.7027323,8.499197,Suisse
gümligen,POSITIVE,11,46.9345928,7.5110516,Suisse
habsburg,POSITIVE,5,47.4620655,8.1871807,Suisse
hedingen,POSITIVE,42,47.2984412,8.448975500000001,Suisse
helvetia,NEGATIVE,38,46.7985624,8.231973599999998,Suisse
hergiswil,POSITIVE,64,46.9840938,8.3104542,Suisse
herrliberg,POSITIVE,888,47.2905574,8.6124721,Suisse
huttwil,POSITIVE,27,47.1147419,7.8455436,Suisse
hägendorf,POSITIVE,2,47.333167100000004,7.836561200000001,Suisse
ilanz,NEGATIVE,2,46.775575,9.205495599999999,Suisse
ingenbohl,POSITIVE,2,47.0007581,8.615022699999999,Suisse
itingen,POSITIVE,4,47.4665362,7.7877841,Suisse
jegenstorf,POSITIVE,21,47.0498143,7.5085719,Suisse
jonen,POSITIVE,32,47.2959739,8.3950641,Suisse
jongny,NEGATIVE,1,46.4788533,6.8418377999999995,Suisse
jonschwil,POSITIVE,94,47.4231947,9.0865706,Suisse
jouxtens,POSITIVE,2,46.5507923,6.595488499999999,Suisse
ju,NEGATIVE,13,47.35666989999999,7.1598893,Suisse
jungfrau,POSITIVE,4,46.5367739,7.962590700000001,Suisse
kaiseraugst,POSITIVE,37,47.5399823,7.7230178,Suisse
kaisten,POSITIVE,9,47.538216999999996,8.044461,Suisse
kallnach,POSITIVE,21,47.0205806,7.2363159,Suisse
kandersteg,POSITIVE,15,46.497586600000005,7.675663799999999,Suisse
kirchleerau,POSITIVE,11,47.2755071,8.0702913,Suisse
koppigen,NEGATIVE,21,47.134711200000005,7.6003107000000005,Suisse
kriens,POSITIVE,342,47.035094799999996,8.2791767,Suisse
kölliken,POSITIVE,93,47.333807,8.021037,Suisse
küssnacht,POSITIVE,60,47.08385,8.4386308,Suisse
küttigen,NEGATIVE,62,47.419363,8.043330000000001,Suisse
lancy,NEGATIVE,3,46.1839156,6.1224047,Suisse
landquart,POSITIVE,14,46.96137185,9.560340898409539,Suisse
lauperswil,NEGATIVE,1,46.9644914,7.741816900000001,Suisse
lausanne,POSITIVE,2281,46.5218269,6.6327025,Suisse
lausen,POSITIVE,182,47.473645899999994,7.759113900000001,Suisse
leibstadt,POSITIVE,3,47.5905075,8.1756561,Suisse
lengnau,POSITIVE,32,47.521079,8.3301378,Suisse
lenk,POSITIVE,30,46.45588789999999,7.4416975999999995,Suisse
lenzerheide,NEGATIVE,2,46.727896,9.5568344,Suisse
letzigrund,NEGATIVE,29,47.3812255,8.5036883,Suisse
leuk,POSITIVE,32,46.317040999999996,7.6353323,Suisse
leukerbad,POSITIVE,54,46.3795175,7.6264761,Suisse
leuzigen,POSITIVE,8,47.174660700000004,7.4585386,Suisse
lichtensteig,POSITIVE,14,47.324257700000004,9.09484510799991,Suisse
liebistorf,POSITIVE,1,46.908714399999994,7.1922334,Suisse
liestal,POSITIVE,1527,47.4839723,7.734778299999999,Suisse
ligerz,POSITIVE,6,47.0844684,7.1358527,Suisse
locarno,POSITIVE,95,46.1695112,8.795421699999999,Suisse
los,POSITIVE,28,46.93466420000001,7.448521700000001,Suisse
lucerna,NEGATIVE,5,47.0505452,8.3054682,Suisse
lucerne,POSITIVE,8364,47.0505452,8.3054682,Suisse
luchsingen,POSITIVE,5,46.9657664,9.0375677,Suisse
lyss,POSITIVE,502,47.072136799999996,7.305262,Suisse
länggasse,POSITIVE,2,47.1493851,8.115119400000001,Suisse
madiswil,POSITIVE,7,47.1648367,7.796815299999999,Suisse
maienfeld,POSITIVE,61,47.007728799999995,9.5309225,Suisse
malvaglia,POSITIVE,1,46.4122365,8.9801587,Suisse
martigny,POSITIVE,5,46.103115,7.072735400000001,Suisse
matran,NEGATIVE,4,46.7861706,7.0973405,Suisse
matten,POSITIVE,10,46.76809055,9.79088563582118,Suisse
mellingen,POSITIVE,22,47.419513099999996,8.274659,Suisse
mels,NEGATIVE,2,47.0467333,9.419293199999998,Suisse
menziken,POSITIVE,8,47.240878,8.187274,Suisse
merenschwand,POSITIVE,14,47.261658000000004,8.3779916,Suisse
merlischachen,POSITIVE,2,47.0676781,8.409047099999999,Suisse
mettmenstetten,NEGATIVE,14,47.243488,8.4636702,Suisse
mollis,POSITIVE,9,47.0942576,9.0752066,Suisse
monthey,POSITIVE,5,46.255457299999996,6.9537826,Suisse
montreux,POSITIVE,26,46.4310831,6.9129921,Suisse
moosseedorf,NEGATIVE,157,47.016365500000006,7.4839011,Suisse
morat,POSITIVE,35,46.9284075,7.1163317,Suisse
murgenthal,NEGATIVE,13,47.2627727,7.831924900000001,Suisse
muri,POSITIVE,801,47.275661299999996,8.3377829,Suisse
naters,POSITIVE,132,46.3242659,7.9884511,Suisse
neuchâtel,POSITIVE,912,46.9895828,6.9292641,Suisse
niederurnen,NEGATIVE,24,47.1257569,9.054739699999999,Suisse
nuerensdorf,POSITIVE,3,47.4492605,8.647075300000001,Suisse
nussbaumen,POSITIVE,64,47.6259119,8.8289852,Suisse
nyon,POSITIVE,276,46.382153100000004,6.2398898,Suisse
näfels,POSITIVE,23,47.099897600000006,9.063433999999999,Suisse
nänikon,POSITIVE,16,47.3696093,8.6923683,Suisse
nürensdorf,POSITIVE,6,47.4492605,8.647075300000001,Suisse
oberaargau,NEGATIVE,4,47.1704896,7.77716883339113,Suisse
oberbuchsiten,POSITIVE,2,47.310187299999996,7.7656577,Suisse
oberdiessbach,NEGATIVE,5,46.83213655,7.6426617421875,Suisse
oberegg,POSITIVE,45,47.422958799999996,9.550570500000001,Suisse
oberembrach,POSITIVE,6,47.48763579999999,8.618542999999999,Suisse
oberengstringen,POSITIVE,78,47.409141,8.4626927,Suisse
oberentfelden,POSITIVE,89,47.3564492,8.0475779,Suisse
oberglatt,NEGATIVE,2,47.476803600000004,8.5203554,Suisse
obergösgen,NEGATIVE,17,47.364104,7.9512089999999995,Suisse
oberkulm,POSITIVE,4,47.2989191,8.1216116,Suisse
oberlunkhofen,POSITIVE,2,47.311931,8.390497400000001,Suisse
oberrieden,POSITIVE,1,47.278074100000005,8.576096699999999,Suisse
oberriet,POSITIVE,1,47.3244578,9.5671274,Suisse
oberrohrdorf,POSITIVE,17,47.421817,8.316452,Suisse
obersaxen,POSITIVE,1,46.751184,9.120517999999999,Suisse
obersiggenthal,POSITIVE,126,47.487555,8.294005199999999,Suisse
oberthal,POSITIVE,2,46.9221153,7.6772104378485295,Suisse
oberuzwil,POSITIVE,16,47.419639399999994,9.14380797316803,Suisse
oberwallis,POSITIVE,100,46.294011,7.8998695,Suisse
oberweningen,NEGATIVE,3,47.501261,8.405698300000001,Suisse
ollon,POSITIVE,1,46.297242600000004,6.995025699999999,Suisse
olten,POSITIVE,3463,47.3496571,7.9037869999999995,Suisse
orpund,POSITIVE,2,47.139790000000005,7.303145,Suisse
payerne,POSITIVE,8,46.820804700000004,6.939126,Suisse
pfaffnau,NEGATIVE,1,47.227371600000005,7.898422900000001,Suisse
pfauen,POSITIVE,78,46.905792299999995,7.0740011,Suisse
pfungen,NEGATIVE,25,47.516112299999996,8.6454232,Suisse
pfyn,POSITIVE,32,47.5970331,8.953673599999998,Suisse
pontresina,POSITIVE,49,46.489993,9.9042965,Suisse
porrentruy,NEGATIVE,1,47.417129700000004,7.0761342,Suisse
poschiavo,NEGATIVE,14,46.3264671,10.0581552,Suisse
posieux,NEGATIVE,1,46.764327200000004,7.097689999999999,Suisse
postfinance,NEGATIVE,179,47.3446888,8.5329516,Suisse
pratteln,NEGATIVE,240,47.5192013,7.6944741,Suisse
praz,POSITIVE,1,46.667525700000006,6.4272029,Suisse
prilly,POSITIVE,6,46.534566,6.6055827,Suisse
puidoux,NEGATIVE,1,46.5008111,6.782391400000001,Suisse
pully,POSITIVE,1,46.508768200000006,6.6640273,Suisse
quartino,POSITIVE,1,46.1505365,8.8966871,Suisse
quellenstrasse,POSITIVE,1,47.472581299999995,9.045740499999999,Suisse
quinten,POSITIVE,7,47.1300249,9.2162248,Suisse
radelfingen,POSITIVE,5,47.0219382,7.2730856,Suisse
rafz,NEGATIVE,2,47.611468,8.5402304,Suisse
rautistrasse,POSITIVE,1,47.3835553,8.483531300000001,Suisse
recherswil,NEGATIVE,4,47.16125,7.5942522,Suisse
regensdorf,NEGATIVE,787,47.4316696,8.4686942,Suisse
rheineck,POSITIVE,68,47.4706336,9.584108,Suisse
richtiplatz,POSITIVE,2,47.410191999999995,8.59534566196535,Suisse
rothrist,POSITIVE,22,47.3029125,7.8826232,Suisse
rotkreuz,POSITIVE,240,47.140774799999996,8.4308106,Suisse
roveredo,POSITIVE,28,46.234900700000004,9.1249754,Suisse
rubigen,POSITIVE,237,46.898862,7.5445171,Suisse
rubigenstrasse,POSITIVE,3,46.8922577,7.502887400000001,Suisse
sachseln,NEGATIVE,105,46.8691292,8.2391395,Suisse
safenwil,POSITIVE,160,47.3187392,7.9841811,Suisse
safnern,POSITIVE,7,47.1500659,7.322072,Suisse
salgesch,POSITIVE,14,46.3116245,7.571087599999999,Suisse
sargans,POSITIVE,637,47.0482641,9.4401995,Suisse
sarmenstorf,POSITIVE,3,47.309920899999995,8.2485603,Suisse
sarnen,NEGATIVE,430,46.8956729,8.2461492,Suisse
sattel,POSITIVE,2471,47.0810016,8.633486300000001,Suisse
savièse,POSITIVE,1,46.2535351,7.3477597999999995,Suisse
schaffhausen,POSITIVE,10163,47.6960491,8.634513,Suisse
schafis,POSITIVE,1,47.0817304,7.1282894,Suisse
schattdorf,NEGATIVE,12,46.8636973,8.6509309,Suisse
schenkon,POSITIVE,1683,47.177492,8.134902,Suisse
scherzingen,POSITIVE,7,47.6330144,9.2214004,Suisse
schiers,POSITIVE,20,46.968931500000004,9.6900481,Suisse
schindellegi,NEGATIVE,57,47.175612,8.7112027,Suisse
schinznach,POSITIVE,20,47.4473496,8.13772978603844,Suisse
schleitheim,POSITIVE,29,47.7488818,8.4845902,Suisse
schlieren,POSITIVE,317,47.396514700000004,8.444486099999999,Suisse
schliern,POSITIVE,2,46.91012835,7.4148690529318,Suisse
schluein,POSITIVE,2,46.7885941,9.2282504,Suisse
schmerikon,POSITIVE,182,47.2256001,8.9415774,Suisse
schmiedengasse,NEGATIVE,10,47.207620899999995,7.534994,Suisse
schneisingen,NEGATIVE,3,47.5196869,8.3627702,Suisse
schoetz,POSITIVE,4,47.169844299999994,7.9884821,Suisse
schoren,NEGATIVE,46,47.438651899999996,7.7755582,Suisse
schuls,NEGATIVE,1,46.7962805,10.2976297,Suisse
schwellbrunn,POSITIVE,6,47.352345,9.249133500000001,Suisse
schänis,POSITIVE,1,47.1591758,9.046679300000001,Suisse
schöftland,NEGATIVE,5,47.305451700000006,8.0527946,Suisse
schötz,NEGATIVE,5,47.169844299999994,7.9884821,Suisse
schübelbach,POSITIVE,68,47.172673100000004,8.9287461,Suisse
schüpfen,POSITIVE,10,47.0394266,7.377898200000001,Suisse
seelisberg,POSITIVE,6,46.977964,8.5858121,Suisse
seuzach,POSITIVE,54,47.534596,8.733834199999999,Suisse
sissach,POSITIVE,680,47.46347670000001,7.812563900000001,Suisse
sisseln,POSITIVE,47,47.5534624,7.989416,Suisse
soleure,NEGATIVE,6,47.2081355,7.5384044999999995,Suisse
solothurn,POSITIVE,4329,47.2081355,7.5384044999999995,Suisse
sommeraustrasse,POSITIVE,27,46.8482336,9.5039366,Suisse
spichermatt,POSITIVE,29,46.9657398,8.3622847,Suisse
st.gallen,POSITIVE,708,47.4250593,9.376587800000001,Suisse
st.moritz,POSITIVE,10,46.4960592,9.8386578,Suisse
st.silvester,POSITIVE,5,46.7410614,7.2193274999999995,Suisse
stabio,POSITIVE,1,45.8499456,8.9376319,Suisse
stadelhoferplatz,POSITIVE,1,47.36643335,8.54831661462973,Suisse
stansstad,POSITIVE,729,46.979282,8.3386483,Suisse
steffisburg,POSITIVE,53,46.777473799999996,7.635419500000001,Suisse
steinackerstrasse,POSITIVE,25,47.4518689,9.0409158,Suisse
steinhausen,POSITIVE,206,47.1975084,8.4860144,Suisse
steinmaur,POSITIVE,2,47.4989995,8.4555136,Suisse
stettlen,POSITIVE,31,46.9600997,7.5247508000000005,Suisse
strengelbach,NEGATIVE,44,47.279107200000006,7.9295347000000005,Suisse
studen,POSITIVE,53,47.1114412,7.3014693,Suisse
stäfa,POSITIVE,556,47.2413349,8.734874699999999,Suisse
subingen,POSITIVE,12,47.1939523,7.615925900000001,Suisse
suhr,POSITIVE,8,47.373214000000004,8.0795198,Suisse
suiça,NEGATIVE,1,46.7985624,8.231973599999998,Suisse
sumiswald,POSITIVE,27,47.0285646,7.7449828,Suisse
sursee,POSITIVE,3653,47.17403710000001,8.1089654,Suisse
svizra,POSITIVE,20,46.7985624,8.231973599999998,Suisse
swissgrid,POSITIVE,14,47.55398345,8.050071898466259,Suisse
switserland,NEGATIVE,1,46.7985624,8.231973599999998,Suisse
tafers,POSITIVE,5,46.8152805,7.2167886,Suisse
thonex,NEGATIVE,58,46.1884304,6.1983858,Suisse
toggenburg,POSITIVE,54,46.927991299999995,7.569762400000001,Suisse
tolochenaz,NEGATIVE,1,46.50115685,6.47751897449496,Suisse
triengen,POSITIVE,1,47.2351967,8.0767478,Suisse
turicum,POSITIVE,469,47.3685586,8.540443400000001,Suisse
ueberstorf,POSITIVE,15,46.8650568,7.3114056,Suisse
uefa,NEGATIVE,1,46.37093535,6.231168493722429,Suisse
uerikon,POSITIVE,14,47.2350588,8.7573767,Suisse
uerkheim,POSITIVE,22,47.30515020000001,8.0253266,Suisse
uetendorf,POSITIVE,35,46.774144,7.569395,Suisse
uetikon,NEGATIVE,100,47.2589924,8.6792539,Suisse
umiken,NEGATIVE,4,47.482462,8.1893151,Suisse
unteraegeri,POSITIVE,1,47.1374124,8.584483,Suisse
unterbäch,POSITIVE,1,46.285274900000005,7.799949300000001,Suisse
unterentfelden,POSITIVE,1,47.366456400000004,8.042651600000001,Suisse
unteriberg,NEGATIVE,3,47.059801799999995,8.8035271,Suisse
unterkulm,NEGATIVE,5,47.310784399999996,8.115695500000001,Suisse
unterohringen,POSITIVE,1,47.534403499999996,8.714365800000001,Suisse
unterseen,POSITIVE,75,46.6871654,7.849636900000001,Suisse
untersiggenthal,POSITIVE,13,47.499201899999996,8.2574722,Suisse
unterägeri,POSITIVE,38,47.1374124,8.584483,Suisse
ur,POSITIVE,4,46.78644129999999,8.6420159,Suisse
urdorf,POSITIVE,64,47.384708,8.4259004,Suisse
uri,POSITIVE,234,46.78644129999999,8.6420159,Suisse
urnäsch,POSITIVE,3,47.3175029,9.2837233,Suisse
urtenen,POSITIVE,3,47.019842700000005,7.4888338,Suisse
uster,POSITIVE,1772,47.3512065,8.7179221,Suisse
uttigen,POSITIVE,3,46.7937156,7.579181,Suisse
uttwil,NEGATIVE,1,47.5835512,9.340385099999999,Suisse
utzigen,POSITIVE,25,46.96039570000001,7.5657955,Suisse
uznach,POSITIVE,72,47.2250636,8.9856079,Suisse
uzwil,POSITIVE,21,47.4370506,9.1333201,Suisse
valais,POSITIVE,151,46.230306299999995,7.6605757,Suisse
verbier,POSITIVE,7,46.0967949,7.2285478,Suisse
verscio,POSITIVE,4,46.185990000000004,8.7311841,Suisse
volketswil,POSITIVE,82,47.389861700000004,8.690503,Suisse
waldstatt,POSITIVE,9,47.3563362,9.2838414,Suisse
walenstadt,POSITIVE,90,47.123645700000004,9.3149919,Suisse
walkringen,POSITIVE,6,46.95932815,7.6282278865106905,Suisse
waltenschwil,POSITIVE,16,47.3345396,8.3024947,Suisse
wangi,POSITIVE,2,47.49093045,8.95544913039773,Suisse
wattwil,POSITIVE,151,47.2915343,9.08781382593684,Suisse
weggis,POSITIVE,19,47.03293305,8.43095665119305,Suisse
weiningen,POSITIVE,9,47.4199708,8.436627099999999,Suisse
wengi,POSITIVE,1,47.083785799999994,7.400060300000001,Suisse
werd,NEGATIVE,114,47.371916299999995,8.52740995498992,Suisse
wernetshausen,NEGATIVE,2,47.2988,8.8643355,Suisse
wettingen,POSITIVE,855,47.4678661,8.322084599999998,Suisse
wetzikon,POSITIVE,2171,47.3226925,8.7980939,Suisse
wiestistrasse,POSITIVE,5,46.0229753,7.752308900000001,Suisse
willisau,POSITIVE,116,47.1215184,7.996589999999999,Suisse
wimmis,NEGATIVE,5,46.673432299999995,7.6368102,Suisse
winterthur,POSITIVE,15152,47.4991723,8.7291498,Suisse
wohlen,NEGATIVE,272,47.3504945,8.278690600000001,Suisse
wohlensee,POSITIVE,9,46.96608815,7.316296665267579,Suisse
wolfenschiessen,POSITIVE,3,46.908060299999995,8.3954757,Suisse
wolfwil,POSITIVE,4,47.269709999999996,7.794652,Suisse
wolhusen,POSITIVE,25,47.05747,8.0731509,Suisse
wollerau,POSITIVE,559,47.195724,8.7194699,Suisse
worb,POSITIVE,93,46.9320867,7.5680602,Suisse
worben,NEGATIVE,6,47.100636,7.29635,Suisse
worblaufen,POSITIVE,154,46.980767900000004,7.461543799999999,Suisse
www.facebook.com,POSITIVE,1,46.7580714,7.6288800000000005,Suisse
wynau,POSITIVE,2,47.258598299999996,7.812757400000001,Suisse
wynigen,POSITIVE,3,47.1075375,7.6685431,Suisse
wädenswil,NEGATIVE,356,47.2278836,8.6701981,Suisse
wängi,NEGATIVE,70,47.49093045,8.95544913039773,Suisse
würenlingen,NEGATIVE,6,47.5320878,8.256961800000001,Suisse
würenlos,NEGATIVE,1536,47.4420259,8.3616382,Suisse
yverdon,NEGATIVE,32,46.7785711,6.640915799999999,Suisse
zentralschweiz,NEGATIVE,5,47.04707665,8.300840697645219,Suisse
zürichsee,POSITIVE,236,47.27908275,8.5978598139003,Suisse
überstorf,POSITIVE,17,46.8650568,7.3114056,Suisse
